{
  "DESCRIPTION": {
    "P_ZONE": "지역",
    "LATITUDE": "Y좌표(WGS84)",
    "MAIN_EQUIP": "주요시설",
    "P_PARK": "공원명",
    "P_IMG": "이미지",
    "LONGITUDE": "X좌표(WGS84)",
    "P_ADDR": "공원주소",
    "P_IDX": "연번",
  },
  "DATA": [
    {
      "p_addr": "서울특별시 중구 삼일대로 231(예장동)",
      "p_zone": "중구",
      "main_equip": "기반시설 : 광장 45950㎡ 도로 108530㎡ 산책로 6.7㎞ (북측:3.7㎞/남측:3.0㎞) 조경시설 : 연못 1개소(1078㎡) 파고라 분수대 그늘시렁 운동시설 : 테니스장 야구장 궁도장 배드민턴장 교양시설 : 도서관 야외식물원 안중근의사 기념관 편익시설 : 주차장 매점 음수대 팔각정 화장실 밴치 타워전망대 기타시설 : 순환도로 18.9㎞",
      "p_park": "남산도시자연공원",
      "p_img": "http://parks.seoul.go.kr/file/info/view.do?fIdx=1884",
      "longitude": "126.9903773",
      "p_idx": 1,
      "latitude": "37.5501402"
    },
    {
      "p_addr": "서울특별시 강동구 천호대로 1291(길동생태공원) ",
      "p_zone": "강동구",
      "main_equip": "탐방객안내소 야외전시대 관찰대 목재데크 조류관찰대 길동생태문화센터",
      "p_park": "길동생태공원",
      "p_img": "http://parks.seoul.go.kr/file/info/view.do?fIdx=1885",
      "longitude": "127.1547791",
      "p_idx": 2,
      "latitude": "37.5403935"
    },
    {
      "p_addr": "경기도 과천시 대공원광장로 102",
      "p_zone": "과천시",
      "main_equip": "동물원 식물원 테마가든(장미원 어린이동물원 피크닉장) 치유숲 산림욕장 캠핑장 국립현대미술관 서울랜드 기린나라 코끼리열차 스카이리프트 등",
      "p_park": "서울대공원",
      "p_img": "http://parks.seoul.go.kr/file/info/view.do?fIdx=1886",
      "longitude": "127.0198465",
      "p_idx": 3,
      "latitude": "37.4264494"
    },
    {
      "p_addr": "서울특별시 성동구 뚝섬로 273 (성수동1가) ",
      "p_zone": "성동구",
      "main_equip": "4개 테마공원: 문화예술공원 자연생태숲 자연체험학습원 습지생태원 주요시설: 가족마당 야외무대 사슴우리 곤충식물원 체육시설 놀이터 산책로 등 ",
      "p_park": "서울숲",
      "p_img": "http://parks.seoul.go.kr/file/info/view.do?fIdx=1887",
      "longitude": "127.0417982",
      "p_idx": 4,
      "latitude": "37.5430717"
    },
    {
      "p_addr": "서울특별시 마포구 하늘공원로 84(월드컵공원)",
      "p_zone": "마포구",
      "main_equip": "평화의 공원 월드컵공원전시관(879㎡) 유니세프광장(2400㎡) 평화광장(5217㎡) 난지연못(24522㎡) 휴게소2개소 화장실 6개소 음수전 2개소 별자리광장(2800㎡) 잔디광장(15110㎡) 야외전시장(5145㎡) 모험놀이터(1133㎡) 피크닉장(멍석20개) 테니스장 2면 평화의정원 1개소 주차장(1242면) 에너지제로하우스 하늘공원 탐방객안내소(103㎡) 풍력발전기 5개소 전망대 20개소 화장실 5개소 음수전 4개소 하늘계단 하늘을 담는 그릇 초지(109567㎡) 난지천공원 인조잔디축구장 게이트볼장(1188㎡) 농구장(420㎡) 음수전 4개소 화장실 5개소 배드민턴장(328㎡) 다목적구장(3240㎡) 장애인놀이터(1591㎡) 어린이놀이터(706㎡) 매점 2개소 잔디광장(16193㎡) 오리연못(3600㎡) 주차장(난지천 196면 임시주차장 250면 장애인주차장 53면) 노을공원 관찰?쉼터데크 전망데크 바람의광장 누에생태체험장 노을캠핑장 파크골프장 노을계단 조각 작품 10 반딧불이 관찰원 커뮤니티센터 난지창작스튜디오 희망의숲 등 매립지 사면 달리기코스(난지순환길 5.8㎞) 수림대 사면녹화 기타시설 지역난방공사 자원회수시설 수소충전시설 수소발전시설 ",
      "p_park": "월드컵공원",
      "p_img": "http://parks.seoul.go.kr/file/info/view.do?fIdx=1888",
      "longitude": "126.878907",
      "p_idx": 5,
      "latitude": "37.571805"
    },
    {
      "p_addr": "서울특별시 종로구 세종로 76-2",
      "p_zone": "종로구",
      "main_equip": "조 경 시 설 : 육조상징벽 6개소 전통담장 4개소 열주 22조 화계6개소 편 익 시 설 : 화강석의자 35조 관 리 시 설 : 광장등 4본 정원등 23본 투사등 28본 열주내장등 22본 기 반 시 설 : 열린마당 3280㎡ 육조마당 920㎡ 휴게마당 1670㎡ 녹지대 3078㎡ 대형전용 주차장 : 9면 ",
      "p_park": "광화문시민열린마당",
      "p_img": "http://parks.seoul.go.kr/file/info/view.do?fIdx=1890",
      "longitude": "126.9780227",
      "p_idx": 6,
      "latitude": "37.5750449"
    },
    {
      "p_addr": "서울특별시 은평구 진관동 393",
      "p_zone": "은평구",
      "main_equip": "폭포 야외무대",
      "p_park": "진관근린공원(구파발폭포)",
      "p_img": "http://parks.seoul.go.kr/file/info/view.do?fIdx=1891",
      "longitude": "126.9192155",
      "p_idx": 7,
      "latitude": "37.6370244"
    },
    {
      "p_addr": "서울특별시 영등포구 영등포동2가 222",
      "p_zone": "영등포구",
      "main_equip": "기반시설 : 광장 200㎡ 산책 등산로 0.50㎞ 편익시설 : 광장  의자 휴지통 음수대 공원등 등 편익시설 : 파고라 연못 1개소(150㎡) 그늘시렁 등 휴양시설 : 정자",
      "p_park": "중마루근린공원",
      "p_img": "http://parks.seoul.go.kr/file/info/view.do?fIdx=1893",
      "longitude": "126.9112668",
      "p_idx": 8,
      "latitude": "37.519832"
    },
    {
      "p_addr": "서울특별시 성동구 금호동1가 산1-72",
      "p_zone": "성동구",
      "main_equip": "조경시설 : 파고라 외 222소 운동시설 : 잔디광장 테니스장 2면 게이트볼장 배드민턴장 6면 다목적경기장 등 편익시설 : 음수대 화장실 2동 등 기타시설 : 관리동 등 ",
      "p_park": "응봉공원",
      "p_img": "http://parks.seoul.go.kr/file/info/view.do?fIdx=1894",
      "longitude": "127.0217653",
      "p_idx": 9,
      "latitude": "37.5572281"
    },
    {
      "p_addr": "서울특별시 강서구 등촌동 630-14",
      "p_zone": "강서구",
      "main_equip": "상징조형물 팔각정자 사각파고라 음수전 ",
      "p_park": "매화근린공원",
      "p_img": "http://parks.seoul.go.kr/file/info/view.do?fIdx=1895",
      "longitude": "126.86115",
      "p_idx": 10,
      "latitude": "37.5575833"
    },
    {
      "p_addr": "서울특별시 성동구 성수2가 3동 302-25",
      "p_zone": "성동구",
      "main_equip": "조경시설 : 그늘시렁 4개소 돌담 2개소(251.31M) 돌담 장식대 84개소 운동시설 : 농구장 176.6㎡ 배드민턴장 2면 편익시설 : 음수대 1개소 벤취 38개소 광장 706㎡ 관리시설 : 공원등 12본 (잔디등 6개소 투시등 2개소)",
      "p_park": "성수근린공원",
      "p_img": "http://parks.seoul.go.kr/file/info/view.do?fIdx=1896",
      "longitude": "127.0524023",
      "p_idx": 11,
      "latitude": "37.5448144"
    },
    {
      "p_addr": "서울특별시 강동구 명일1동 288",
      "p_zone": "강동구",
      "main_equip": "농구대 2개소 체력단련시설 놀이터 다목적운동장 연못1개",
      "p_park": "샛마을근린공원",
      "p_img": "http://parks.seoul.go.kr/file/info/view.do?fIdx=1897",
      "longitude": "127.1471618",
      "p_idx": 12,
      "latitude": "37.5504807"
    },
    {
      "p_addr": "서울특별시 영등포구 여의공원로 68 (여의도동)",
      "p_zone": "영등포구",
      "main_equip": "건축물 : 8동 - 관리사무실(7.9㎡) 편의점3동(각 29.7㎡) 화장실7동(각104.28㎡)팔각정(27.72㎡) 사모정(8.91㎡) 공원지구대(264㎡) 공원파출소     - 자전거 도로 : 2.4km(폭4~6m) 산책로 : 3.9km(폭 2m)     - 한강둔치 연결 지하보도 : 120m(높이 2.5m 폭 8m)     - 공원등 : 334개소     - 스프링클러 : 6.4km 155개소     - 광장 : 24735㎡(7482평)     - 자전거보관대 : 2개소(16대)     - 연못 : 3개소 4848㎡( 지당연못 3530㎡ 생태연못 730㎡ 잔디마당연못 588㎡) ",
      "p_park": "여의도근린공원",
      "p_img": "http://parks.seoul.go.kr/file/info/view.do?fIdx=1898",
      "longitude": "126.922377",
      "p_idx": 13,
      "latitude": "37.526129"
    },
    {
      "p_addr": "서울특별시 동대문구 서울시립대로2길 59(간데메공원)",
      "p_zone": "동대문구",
      "main_equip": null,
      "p_park": "간데메근린공원",
      "p_img": "http://parks.seoul.go.kr/file/info/view.do?fIdx=1899",
      "longitude": "127.0488644",
      "p_idx": 14,
      "latitude": "37.5732438"
    },
    {
      "p_addr": "서울특별시 중구 을지로 227",
      "p_zone": "중구",
      "main_equip": "편익시설 : 관리실(29.30㎡) 화장실(33.62㎡) 벤취 34 조경시설 : 수목 소나무외 26종 22771주 잔디 9039㎡ (2734평) 파고라 1 음수대 1계류천 벽천 안개분수 ",
      "p_park": "훈련원근린공원",
      "p_img": "http://parks.seoul.go.kr/file/info/view.do?fIdx=1900",
      "longitude": "127.0038188",
      "p_idx": 15,
      "latitude": "37.5675245"
    },
    {
      "p_addr": "서울특별시 영등포구 신길로 275",
      "p_zone": "영등포구",
      "main_equip": "관리시설 : 관리사무소 공원등 안내판 조경시설 : 음악분수 파고라 연못 개울 벽천 잔디밭 운동시설 : 농구장 배드민턴장 풋살경기장 편익시설 : 주차장 공중전화 음수전 화장실 의자 휴양시설 : 야외정자",
      "p_park": "영등포근린공원",
      "p_img": "http://parks.seoul.go.kr/file/info/view.do?fIdx=1901",
      "longitude": "126.910662",
      "p_idx": 16,
      "latitude": "37.515423"
    },
    {
      "p_addr": "서울특별시 동작구 여의대방로20길 33(보라매공원)",
      "p_zone": "동작구",
      "main_equip": "조경시설 : 잔디마당 수경시설(연못 벽천 등) 철쭉동산 무궁화동산 등 운동시설 : 조깅트랙 인조잔디축구장 테니스장 다목적운동장 베드민턴장 인공암벽등반장 게이트볼장 지압보도 헬스시설(평행봉 등 28종) 편익시설 : 주차장 매점 음수대 팔각정 화장실 벤치 유희시설 : 어린이놀이터  피크닉장 바닥분수 에어파크 교양시설 : 청소년수련관 시민안전체험관 동작구민회관 보안시설 : 시설물관리 감시용 CCTV 38대 24시간 녹화가동 중 기타시설 : 관악노인종합복지관 서울시지적장애인복지관 서울시남부장애인복지관 동작경찰서 지구대파견소 ※ 신림 경전철 공사로 인해 농구장 X-game장 인라인스케이트장은 폐쇄 ",
      "p_park": "보라매근린공원",
      "p_img": "http://parks.seoul.go.kr/file/info/view.do?fIdx=1902",
      "longitude": "126.918289",
      "p_idx": 17,
      "latitude": "37.492333"
    },
    {
      "p_addr": "서울특별시 광진구 능동로 216(어린이대공원)",
      "p_zone": "광진구",
      "main_equip": "교양시설：41개소(야외음악당 등) 조경시설：14개소(분수대 등) 유희시설：45종(놀이동산 등)   편의시설：110개소(식당 등) 동 물 원：105종 621마리 식 물 원：373종 5977 본 ",
      "p_park": "어린이대공원",
      "p_img": "http://parks.seoul.go.kr/file/info/view.do?fIdx=1903",
      "longitude": "127.0809212",
      "p_idx": 18,
      "latitude": "37.5498987"
    },
    {
      "p_addr": "서울특별시 강동구 올림픽로 702(천호공원)",
      "p_zone": "강동구",
      "main_equip": "기반시설 : 광장 1300㎡ 조경시설 : 연못 1개소 888㎡(음악분수 108) 운동시설 : 배드민턴코트 4면 600㎡(182평) 농구대 4조 족구장 442㎡(134평) 체력단련시설 32조 체력단련시설 상세 : 허리돌리기 4 철봉 3 옆파도타기 3 공중걷기 2 오금펴기 1 레그익스텐션 1 윗몸일으키기 1 로프당기기 2 팔내리기운동 1 벤치프레스 4 체스트웨이트 1 렛풀다운 1 팩덱머신 1 노젓기운동 1 양다리운동 2 상체근육풀기 2 다리운동 1 양회전운동 1 등?허리지압기 1 온몸역도올리기 3 버터플라이 1 교양시설 : 야외무대 1개소 213㎡ 도서관 473㎡ 편의시설 : 벤치(등받이) 64 벤치 40 팔각정자 1개소 평상 17 원형테이블 2 피크닉테이블 27 음수대 2 관리시설 : 공원등 58본 감시카메라 5본 서치라이트 2조 스피커 34개 음악분수제어실 1 ",
      "p_park": "천호근린공원",
      "p_img": "http://parks.seoul.go.kr/file/info/view.do?fIdx=1904",
      "longitude": "127.1263451",
      "p_idx": 19,
      "latitude": "37.5444741"
    },
    {
      "p_addr": "서울특별시 용산구 서빙고로 185",
      "p_zone": "용산구",
      "main_equip": "조경시설 : 잔디광장 연못 4개소(6740㎡) 정자3 원두막2 자연학습장 맨발공원 태극기공원 운동시설 : 철봉 평행봉 역기 윗몸일으키기 등배치기 등 13점 편익시설 : 주차장(50대) 음수대 공중전화 화장실 벤치 자동판매기 교양시설 : 국제조각품 9점 기타시설 : 야외예식장 빗물펌프장 공원가로등(59본 118등)",
      "p_park": "용산가족공원",
      "p_img": "http://parks.seoul.go.kr/file/info/view.do?fIdx=1905",
      "longitude": "126.983335",
      "p_idx": 20,
      "latitude": "37.522226"
    },
    {
      "p_addr": "서울특별시 서대문구 통일로251(독립공원)",
      "p_zone": "서대문구",
      "main_equip": "방문자센터(관리사무소 위치) 순국선열추념탑 서재필선생동상 독립관(순국선열 위패봉안소) 3?1독립선언기념탑 독립문 형무소 역사관 이진아기념도서관 ",
      "p_park": "독립근린공원",
      "p_img": "http://parks.seoul.go.kr/file/info/view.do?fIdx=1907",
      "longitude": "126.956771",
      "p_idx": 21,
      "latitude": "37.5738289"
    },
    {
      "p_addr": "서울특별시 종로구 낙산길 41 (우) 03085",
      "p_zone": "종로구",
      "main_equip": "기반시설 : 관리도로 2920m 산책로 1010m 주차장 640㎡ 교양시설 : 역사탐방로 935m 비우당 27㎡ 홍덕이밭 50㎡ 건축시설 : 5동(전시및관리실 매점및화장실 비우당 육각정자 노인정) 운동시설 : 배드민턴장 12면 농구장 1면 편익시설 : 파고라 5종 의자 117개 음수대(6) 화장실2 광 장 : 5개소(중앙광장 놀이광장 전망광장 3개소) 기타시설 : 안내판 등 29개 ",
      "p_park": "낙산근린공원",
      "p_img": "http://parks.seoul.go.kr/file/info/view.do?fIdx=1908",
      "longitude": "127.007587",
      "p_idx": 22,
      "latitude": "37.580477"
    },
    {
      "p_addr": "서울특별시 서초구 매헌로 99 (양재동)",
      "p_zone": "서초구",
      "main_equip": "조경시설 : 잔디광장 파고라 그늘시렁 운동시설 : 배구장(족구장 겸용) 농구장 테니스장 등 편익시설 : 매점 야외 바비큐장 음수대 화장실 5개소 등 기        타 : 야외 예식장 윤봉길의사 기념관 윤봉길의사 동상 야외무대 백마부대 충혼탑                      대한항공 858편 위령탑 삼풍백화점 희생자 위령탑 등 ",
      "p_park": "양재시민의숲",
      "p_img": "http://parks.seoul.go.kr/file/info/view.do?fIdx=1909",
      "longitude": "127.035042",
      "p_idx": 23,
      "latitude": "37.471225"
    },
    {
      "p_addr": "서울특별시 관악구 관악로 1(관악산공원)",
      "p_zone": "관악구",
      "main_equip": "낙성대 연주대 삼막사 관음사 관악산호수",
      "p_park": "관악산도시자연공원",
      "p_img": "http://parks.seoul.go.kr/file/info/view.do?fIdx=1910",
      "longitude": "126.96413",
      "p_idx": 24,
      "latitude": "37.445208"
    },
    {
      "p_addr": "서울특별시 용산구 효창원로 177-18",
      "p_zone": "용산구",
      "main_equip": "관리시설 : 관리사무소 공원등 안내판 편의시설 : 매점 공중전화 화장실 음수대 야외탁자 의자 시계탑 조경시설 : 자연학습장 연못 데크로드 운동시설 : 농구장 배드민턴장 게이트볼장 체력단련시설 유희시설 : 어린이놀이터 휴양시설 : 정자 파고라 교양(사적)시설 : 의열사 백범김구선생 묘역 삼의사묘역 임정요인묘역 백범기념관 이봉창의사 동상 반공투사 위령탑 원효대사상",
      "p_park": "효창근린공원",
      "p_img": "http://parks.seoul.go.kr/file/info/view.do?fIdx=1912",
      "longitude": "126.95993",
      "p_idx": 25,
      "latitude": "37.545234"
    },
    {
      "p_addr": "서울특별시 금천구 독산4동 371?375 373일대",
      "p_zone": "금천구",
      "main_equip": "연못 3개소 목재 데크 황토길 지압로 공원등(12)",
      "p_park": "감로천생태공원(관악산)",
      "p_img": "http://parks.seoul.go.kr/file/info/view.do?fIdx=1913",
      "longitude": "126.9079509",
      "p_idx": 26,
      "latitude": "37.469625"
    },
    {
      "p_addr": "서울특별시 성북구 북악산로 949-73(돈암동 6-1)",
      "p_zone": "성북구",
      "main_equip": "공원이용지원센터 화장실 산책로(산마루길 목재데크산책로 오솔길 등) 자연학습장 지압보도 축구장 배드민턴장 족구장 정자 등",
      "p_park": "개운산근린공원",
      "p_img": "http://parks.seoul.go.kr/file/info/view.do?fIdx=1914",
      "longitude": "127.0252858",
      "p_idx": 27,
      "latitude": "37.5965837"
    },
    {
      "p_addr": "서울특별시 구로구 오류동 산13-1",
      "p_zone": "구로구",
      "main_equip": "배드민턴장 철봉 허리돌리기 역기 등 운동기구",
      "p_park": "개웅산근린공원",
      "p_img": "http://parks.seoul.go.kr/file/info/view.do?fIdx=1915",
      "longitude": "126.8485734",
      "p_idx": 28,
      "latitude": "37.4888943"
    },
    {
      "p_addr": "서울특별시 종로구 새문안로 55(신문로2가 2-1)",
      "p_zone": "종로구",
      "main_equip": "자정전 흥화문 (서울특별시 유형문화재 제19호) 숭정전",
      "p_park": "경희궁",
      "p_img": "http://parks.seoul.go.kr/file/info/view.do?fIdx=1918",
      "longitude": "126.9685341",
      "p_idx": 29,
      "latitude": "37.570773"
    },
    {
      "p_addr": "서울특별시 동작구 사당2동 산41-2",
      "p_zone": "동작구",
      "main_equip": "현충관 현충탑 충열대 충성분수대 호국분수탑 충혼승천상 휴게소",
      "p_park": "국립현충원",
      "p_img": "http://parks.seoul.go.kr/file/info/view.do?fIdx=1919",
      "longitude": "126.9736849",
      "p_idx": 30,
      "latitude": "37.4998621"
    },
    {
      "p_addr": "서울특별시 양천구 신정동 산44-2일대",
      "p_zone": "양천구",
      "main_equip": "장군정(정상) 1동 다목적구장(실내 배드민턴장) 생태연결통로(계남12공원 연결) 조류사육장 1개소 야외무대 약수터 3개소 각종운동시설(게이트볼장 족구장 등) 화장실 2개동 ",
      "p_park": "계남근린공원",
      "p_img": "http://parks.seoul.go.kr/file/info/view.do?fIdx=1920",
      "longitude": "126.8479643",
      "p_idx": 31,
      "latitude": "37.5138358"
    },
    {
      "p_addr": "서울특별시 구로구 고척로45길 39(고척공원)",
      "p_zone": "구로구",
      "main_equip": "도서관 어린이놀이터 배드민턴장 테니스장 운동장 조깅트랙 구민체육센터 운동기구 농구장",
      "p_park": "고척근린공원",
      "p_img": "http://parks.seoul.go.kr/file/info/view.do?fIdx=1921",
      "longitude": "126.8521495",
      "p_idx": 32,
      "latitude": "37.5042944"
    },
    {
      "p_addr": "서울특별시 양천구 목동동로 363 ",
      "p_zone": "양천구",
      "main_equip": "분수(벽천 무지개 분수 곡사분수 바닥분수) 자수화단 야외무대 모형 에펠탑 개선문 등 각종 운동시설(체력단련장) 관리사무소(화장실) 1개동 공원등80개 등 ",
      "p_park": "파리근린공원",
      "p_img": "http://parks.seoul.go.kr/file/info/view.do?fIdx=1922",
      "longitude": "126.8763932",
      "p_idx": 33,
      "latitude": "37.5349739"
    },
    {
      "p_addr": "서울특별시 강서구 허준로5길 42",
      "p_zone": "강서구",
      "main_equip": "연못(5100㎡) 정자 어린이 놀이 시설 허준 동상 음악분수 ",
      "p_park": "허준공원",
      "p_img": "http://parks.seoul.go.kr/file/info/view.do?fIdx=1923",
      "longitude": "126.8526745",
      "p_idx": 34,
      "latitude": "37.5679874"
    },
    {
      "p_addr": "서울특별시 서대문구 성산로7길 19-24(궁동공원) ",
      "p_zone": "서대문구",
      "main_equip": "조경시설 : 파고라 3동 편의시설 : 실내체육관 1동 정자 2동 평의자 30조 관리시설 : 종합안내판 1조 초화류안내판 2개 기반시설 : 도로 산책로 등 ",
      "p_park": "궁동근린공원",
      "p_img": "http://parks.seoul.go.kr/file/info/view.do?fIdx=1924",
      "longitude": "126.9229851",
      "p_idx": 35,
      "latitude": "37.5690506"
    },
    {
      "p_addr": "서울특별시 강서구 가양동 산4-7",
      "p_zone": "강서구",
      "main_equip": "소악루 양천고성지 양천향교 자연학습탐방로 사진촬영전망대 ",
      "p_park": "궁산근린공원",
      "p_img": "http://parks.seoul.go.kr/file/info/view.do?fIdx=1925",
      "longitude": "126.838952",
      "p_idx": 36,
      "latitude": "37.5735645"
    },
    {
      "p_addr": "서울특별시 동작구 사당동 산32",
      "p_zone": "동작구",
      "main_equip": "임당 정공 신도비 ",
      "p_park": "까치산근린공원",
      "p_img": "http://parks.seoul.go.kr/file/info/view.do?fIdx=1926",
      "longitude": "126.9640735",
      "p_idx": 37,
      "latitude": "37.4845836"
    },
    {
      "p_addr": "서울특별시 강서구 방화동 산110",
      "p_zone": "강서구",
      "main_equip": "게이트볼장 정자 지압로 약수터음수전 ",
      "p_park": "꿩고개근린공원",
      "p_img": "http://parks.seoul.go.kr/file/info/view.do?fIdx=1927",
      "longitude": "126.8157075",
      "p_idx": 38,
      "latitude": "37.5801585"
    },
    {
      "p_addr": "서울특별시 동작구 여의대방로 15-45(여의대방로36길 71)",
      "p_zone": "동작구",
      "main_equip": "조깅트랙 다목적운동장 공군충혼탑 장애인운동시설 테니스장 산책로 ",
      "p_park": "노량진공원",
      "p_img": "http://parks.seoul.go.kr/file/info/view.do?fIdx=1928",
      "longitude": "126.928607",
      "p_idx": 39,
      "latitude": "37.510234"
    },
    {
      "p_addr": "서울특별시 동대문구 답십리로 209(답십리공원) ",
      "p_zone": "동대문구",
      "main_equip": "휴게소 5개소 그늘시렁 6동 종합체육시설 배드민턴장 문화회관",
      "p_park": "답십리근린공원",
      "p_img": "http://parks.seoul.go.kr/file/info/view.do?fIdx=1929",
      "longitude": "127.0626512",
      "p_idx": 40,
      "latitude": "37.5750896"
    },
    {
      "p_addr": "서울특별시 강남구 광평로10길 30-71(대모산공원) ",
      "p_zone": "강남구",
      "main_equip": "화장실 1동 약수터 1개소 편익시설 44개 다목적 운동장 1개소 ",
      "p_park": "대모산도시자연공원",
      "p_img": "http://parks.seoul.go.kr/file/info/view.do?fIdx=1930",
      "longitude": "127.0809639",
      "p_idx": 41,
      "latitude": "37.4796489"
    },
    {
      "p_addr": "서울특별시 종로구 종로 99",
      "p_zone": "종로구",
      "main_equip": "원각사지10층석탑 팔각정 3.1운동기념탑 손병희선생 동상 한용운선생 기념비 우물 편의시설 ",
      "p_park": "탑골근린공원",
      "p_img": "http://parks.seoul.go.kr/file/info/view.do?fIdx=1931",
      "longitude": "126.9882853",
      "p_idx": 42,
      "latitude": "37.5710052"
    },
    {
      "p_addr": "서울특별시 양천구 신정동 162-56",
      "p_zone": "양천구",
      "main_equip": "갈산정(정상) 1동 교통교육관 및 전시물 교통안전교육 체험장 어린이놀이터 멀티코트장 등 중심광장 전망대 각종 운동시설 ",
      "p_park": "갈산근린공원",
      "p_img": "http://parks.seoul.go.kr/file/info/view.do?fIdx=1932",
      "longitude": "126.8689146",
      "p_idx": 43,
      "latitude": "37.5082119"
    },
    {
      "p_addr": "서울특별시 송파구 마천동 산 1-1",
      "p_zone": "송파구",
      "main_equip": "어린이안전공원 축구장 배드민턴장 체력단련장 ",
      "p_park": "천마근린공원",
      "p_img": "http://parks.seoul.go.kr/file/info/view.do?fIdx=1936",
      "longitude": "127.1586644",
      "p_idx": 44,
      "latitude": "37.5005173"
    },
    {
      "p_addr": "서울특별시 강남구 도곡동 산31-1",
      "p_zone": "강남구",
      "main_equip": "배드민턴장 약수터 화장실 정자 다목적 운동장 ",
      "p_park": "도곡근린공원",
      "p_img": "http://parks.seoul.go.kr/file/info/view.do?fIdx=1937",
      "longitude": "127.0450338",
      "p_idx": 45,
      "latitude": "37.4903127"
    },
    {
      "p_addr": "서울특별시 강남구 도산대로45길 20(도산공원)",
      "p_zone": "강남구",
      "main_equip": "도산묘소 동상 도산기념관 화장실 그늘시렁 운동시설 ",
      "p_park": "도산근린공원",
      "p_img": "http://parks.seoul.go.kr/file/info/view.do?fIdx=1938",
      "longitude": "127.0350296",
      "p_idx": 46,
      "latitude": "37.5246752"
    },
    {
      "p_addr": "서울특별시 성북구 화랑로18가길 50",
      "p_zone": "성북구",
      "main_equip": "어른신건강마당 진입광장 휴식광장 입구연못 파고라 조경수원 목교 전망테크 산림종합전시관 야외학습장 도서관 공연장 건강마당 ",
      "p_park": "청량공원",
      "p_img": "http://parks.seoul.go.kr/file/info/view.do?fIdx=1939",
      "longitude": "127.0511145",
      "p_idx": 47,
      "latitude": "37.6020055"
    },
    {
      "p_addr": "서울특별시 도봉구 창동 산157",
      "p_zone": "도봉구",
      "main_equip": "잔디광장 계류 생태연못 녹지대 음수대 생활체육시설 산책로 등 ",
      "p_park": "초안산근린공원",
      "p_img": "http://parks.seoul.go.kr/file/info/view.do?fIdx=1940",
      "longitude": "127.0455446",
      "p_idx": 48,
      "latitude": "37.648316"
    },
    {
      "p_addr": "서울특별시 강동구 고덕2동 229",
      "p_zone": "강동구",
      "main_equip": "축구장 족구장 배구장 배드민턴장 농구장 ",
      "p_park": "동명근린공원",
      "p_img": "http://parks.seoul.go.kr/file/info/view.do?fIdx=1911",
      "longitude": "127.1676703",
      "p_idx": 49,
      "latitude": "37.5598341"
    },
    {
      "p_addr": "서울특별시 종로구 대학로8길 1",
      "p_zone": "종로구",
      "main_equip": "야외무대 분수대 조합놀이대 ",
      "p_park": "마로니에공원",
      "p_img": "http://parks.seoul.go.kr/file/info/view.do?fIdx=1941",
      "longitude": "127.0027886",
      "p_idx": 50,
      "latitude": "37.5802295"
    },
    {
      "p_addr": "서울특별시 영등포구 의사당대로 166 (우) 07324",
      "p_zone": "영등포구",
      "main_equip": "앙카라하우스 조형물 파고라4개소 배드민턴장 게이트볼장 화장실 관리실 ",
      "p_park": "자매근린공원",
      "p_img": "http://parks.seoul.go.kr/file/info/view.do?fIdx=1942",
      "longitude": "126.9302895",
      "p_idx": 51,
      "latitude": "37.5177329"
    },
    {
      "p_addr": "서울특별시 송파구 장지동 산 11번지",
      "p_zone": "송파구",
      "main_equip": "휴게광장 체력단련장 배드민턴장 ",
      "p_park": "장지근린공원",
      "p_img": "http://parks.seoul.go.kr/file/info/view.do?fIdx=1943",
      "longitude": "127.1387",
      "p_idx": 52,
      "latitude": "37.4957083"
    },
    {
      "p_addr": "서울특별시 강동구 상일동 135",
      "p_zone": "강동구",
      "main_equip": "생태연못 초가정자 바닥분수 계류 벽천 어린이놀이터 돌무더기 ",
      "p_park": "명일근린공원",
      "p_img": "http://parks.seoul.go.kr/file/info/view.do?fIdx=1944",
      "longitude": "127.1613641",
      "p_idx": 53,
      "latitude": "37.5537143"
    },
    {
      "p_addr": "서울특별시 강서구 금낭화로 176(방화공원)",
      "p_zone": "강서구",
      "main_equip": "다목적운동장 체육시설 원형광장 연못 분수대 어린이놀이터 산책로 파고라 휴게소 ",
      "p_park": "방화근린공원",
      "p_img": "http://parks.seoul.go.kr/file/info/view.do?fIdx=1848",
      "longitude": "126.8132285",
      "p_idx": 54,
      "latitude": "37.5819812"
    },
    {
      "p_addr": "서울특별시 송파구 올림픽로 44 (잠실동)",
      "p_zone": "송파구",
      "main_equip": "송파문화예술회관 야외공연장 부리도 기념비 시와 그림의 광장",
      "p_park": "아시아근린공원",
      "p_img": "http://parks.seoul.go.kr/file/info/view.do?fIdx=1849",
      "longitude": "127.0762885",
      "p_idx": 55,
      "latitude": "37.5102779"
    },
    {
      "p_addr": "서울특별시 동대문구 한천로43길 12-14(배봉산공원) ",
      "p_zone": "동대문구",
      "main_equip": "야외무대관리사무실 어린이놀이터 약수터 산책로 체육시설 자연학습장 ",
      "p_park": "배봉산근린공원",
      "p_img": "http://parks.seoul.go.kr/file/info/view.do?fIdx=1850",
      "longitude": "127.0641623",
      "p_idx": 56,
      "latitude": "37.5812324"
    },
    {
      "p_addr": "서울특별시 서대문구 홍제동 산33-98",
      "p_zone": "서대문구",
      "main_equip": "조경시설 : 팔각정자 야외탁자 조합놀이대 등 편의시설 : 화장실 약수터 등 관리시설 : 관리사무소 공원등 안내판 등 기반시설 : 만남의광장 산책로 등 연희숲속쉼터 : 10000㎡(연희동 산2-5 서대문청소년수련관 주변) 잔디마당 숲속쉼터허브원 습지 계류시설 홍제천 수변마당 안산자락길 : 1.69KM(옛 시민아파트 철거부지 ~ 한성과학고 뒤) 장애물이 없는 데크로드 ",
      "p_park": "안산도시자연공원",
      "p_img": "http://parks.seoul.go.kr/file/info/view.do?fIdx=1851",
      "longitude": "126.9390273",
      "p_idx": 57,
      "latitude": "37.5798246"
    },
    {
      "p_addr": "서울특별시 강서구 염창동 산24-1",
      "p_zone": "강서구",
      "main_equip": "골프연습장 스포츠센타",
      "p_park": "염창근린공원",
      "p_img": "http://parks.seoul.go.kr/file/info/view.do?fIdx=1852",
      "longitude": "126.8689817",
      "p_idx": 58,
      "latitude": "37.5579702"
    },
    {
      "p_addr": "서울특별시 서대문구 통일로 507-22(백련공원) ",
      "p_zone": "서대문구",
      "main_equip": "조경시설 : 정자 파고라 조합놀이대 등  편의시설 : 청소년수련관 문화체육회관 화장실 음수대 등  관리시설 : 종합안내판 관리사무소 등  기반시설 : 도로 산책로 등   백련근린공원(논골지구) : 19500㎡(홍은2동 산11-216 서강아파트 뒤) 팔각정 초정 운동시설 계류 생태연못 허브원 장미원 실용원 약용원 등 ",
      "p_park": "백련근린공원",
      "p_img": "http://parks.seoul.go.kr/file/info/view.do?fIdx=1860",
      "longitude": "126.928616",
      "p_idx": 59,
      "latitude": "37.5879662"
    },
    {
      "p_addr": "서울특별시 송파구 오금로 363 오금근린공원 ",
      "p_zone": "송파구",
      "main_equip": "곰두리체육센터 송파도서관 테니스장 배드민턴장 게이트볼장 자연학습관찰로 삼림욕장 ",
      "p_park": "오금근린공원",
      "p_img": "http://parks.seoul.go.kr/file/info/view.do?fIdx=1861",
      "longitude": "127.1323957",
      "p_idx": 60,
      "latitude": "37.5038715"
    },
    {
      "p_addr": "서울특별시 강북구 번동 산20-1",
      "p_zone": "강북구",
      "main_equip": "배드민턴장 운동장 체력단련시설",
      "p_park": "오동근린공원",
      "p_img": "http://parks.seoul.go.kr/file/info/view.do?fIdx=1862",
      "longitude": "127.0317269",
      "p_idx": 61,
      "latitude": "37.6327957"
    },
    {
      "p_addr": "서울특별시 은평구 구산동 산61",
      "p_zone": "은평구",
      "main_equip": "산책로9㎞ 전시관 1동 운동시설",
      "p_park": "봉산도시자연공원",
      "p_img": "http://parks.seoul.go.kr/file/info/view.do?fIdx=1863",
      "longitude": "126.9020153",
      "p_idx": 62,
      "latitude": "37.604071"
    },
    {
      "p_addr": "서울특별시 구로구 개봉동 산2-60",
      "p_zone": "구로구",
      "main_equip": "배드민턴장 체력단련장 철봉 허리돌리기 등 운동기구",
      "p_park": "온수도시자연공원",
      "p_img": "http://parks.seoul.go.kr/file/info/view.do?fIdx=1864",
      "longitude": "126.83695",
      "p_idx": 63,
      "latitude": "37.5002598"
    },
    {
      "p_addr": "서울특별시 강남구 삼성동 75",
      "p_zone": "강남구",
      "main_equip": "奉恩寺 도심 한가운데 있는 奉恩寺는 그 외형적 규모뿐 아니라 역사적으로 서울의 대표적인 사찰로 알려져 있다. 일제시대에는 서울과 경기 일원의 80여 사찰을 관장하던 본사였고 조선시대에는 억불정책에도 불구하고 선종의 수사찰(首寺刹)로 한국불교의 명맥을 유지하는데 결정적 공헌을 해온 곳이다. 선불당(選佛堂) 봉은사 대웅전 한단 아래 왼쪽에 자리잡고 있는 선불당은 대중을 위한 禪房으로1941년 심검당이 있던 자리에 중건된 것이다. 선불당은 계율을 일러주는 곳 혹은 선법.교법을 닦는 곳이다. 秋史 金正喜의 '板殿' 현판 (서울시 유형문화재 제76호: 1991년 5월28일 지정) 봉은사에 있는 화엄경소를 비롯한 15종 3438매의 많은 목판본을 보관하기 위하여 세워진 전각인 판전의 정면 어칸의 처마에 걸려 있는 편액이다. 이 편액은 추사 김정희(1786~1856?)의 말년 작품으로 왼쪽에 세로로 '칠십일과병중작(칠십일과병중작)'이라 쓰여진 바와 같이 그가 71세때 병중에 쓴 글씨로 유명하다. 대방광불화엄경(大方廣佛華嚴經) 수소연의 초판 (서울시 유형문화재 제84호: 1992년 12월28일 지정) 봉은사 판전에 보관되어 있는 총 15종 3438판의 목판본 중 3133판이 바로 대방광불화엄경이다. 대승불교의 대표적 경전이라 할 수 있는 이 화엄경판은 처음 중국 당나라의 실차난타와 징관이 각각 번역하고 찬한 것으로 흔히 '화엄경'으로 줄여 부른다. 주된 내용은 부처님이 성도한 깨달음의 내용을 그대로 나타내고 있는 경전으로 여러 대승불교의 경전 가운데서도 교학적.사상적으로 불교의 핵심을 가장 깊게 담고 있다는 평가를 받고 있다. ",
      "p_park": "봉은공원",
      "p_img": "http://parks.seoul.go.kr/file/info/view.do?fIdx=1865",
      "longitude": "127.0554961",
      "p_idx": 64,
      "latitude": "37.5139026"
    },
    {
      "p_addr": "서울특별시 송파구 올림픽로 424 (방이동)",
      "p_zone": "송파구",
      "main_equip": "몽촌토성 음악분수 올림픽회관 지구촌공원 피크닉장 88마당 체육관",
      "p_park": "올림픽공원",
      "p_img": "http://parks.seoul.go.kr/file/info/view.do?fIdx=1866",
      "longitude": "127.122959",
      "p_idx": 65,
      "latitude": "37.520934"
    },
    {
      "p_addr": "서울특별시 종로구 와룡공원길 192 (우) 03063",
      "p_zone": "종로구",
      "main_equip": "말바위 테니스장 노천탕",
      "p_park": "와룡근린공원",
      "p_img": "http://parks.seoul.go.kr/file/info/view.do?fIdx=1867",
      "longitude": "126.9901672",
      "p_idx": 66,
      "latitude": "37.5907944"
    },
    {
      "p_addr": "서울특별시 중랑구 묵동 산46-1",
      "p_zone": "중랑구",
      "main_equip": "봉수대 등",
      "p_park": "봉화산근린공원",
      "p_img": "http://parks.seoul.go.kr/file/info/view.do?fIdx=1868",
      "longitude": "127.0923625",
      "p_idx": 67,
      "latitude": "37.6106404"
    },
    {
      "p_addr": "서울특별시 종로구 부암동 산2-6",
      "p_zone": "종로구",
      "main_equip": "현재 북악은 청와대가 있어 일반인의 등산이 금지되어 있으나 1967년까지는 청와대 뒤의 북악 일대도 가벼운 등산길이었다. 그러나 1968년 1월 21일 북한 무장공비들이 이곳까지 침투해 온 사건이 발생하여 수도권 경비강화를 목적으로 북악스카이웨이를 만들고 등산길은 폐쇄하였다.   숙정문과 창의문 사이에는 성곽옆에 1.21사태 소나무가 생육중이다.   북악산도시자연공원에는 서울성곽 18.627km의 탐방코스중 4대문 중 북대문인 숙정문에서  4소문중 북소문인 창의문 구간 약 2km의 코스가 있다.   창의문 외곽에는 북악산도시자연공원은 아니지만 자연경관보호지역으로 백사실계곡이 인접하여 있다. ",
      "p_park": "북악산도시자연공원",
      "p_img": "http://parks.seoul.go.kr/file/info/view.do?fIdx=1869",
      "longitude": "126.9737295",
      "p_idx": 68,
      "latitude": "37.5929992"
    },
    {
      "p_addr": "서울특별시 종로구 은평구 서대문구 성북구 강북구 도봉구 일대 경기도 의정부 양주군 고양시 일대",
      "p_zone": "강북구",
      "main_equip": null,
      "p_park": "북한산국립공원",
      "p_img": "http://parks.seoul.go.kr/file/info/view.do?fIdx=1870",
      "longitude": "127.000938",
      "p_idx": 69,
      "latitude": "37.624549"
    },
    {
      "p_addr": "서울특별시 마포구 양화진길 46(외국인묘지공원)",
      "p_zone": "마포구",
      "main_equip": "묘지 517기 휴게시설 편의시설 녹지대",
      "p_park": "외국인묘지공원",
      "p_img": "http://parks.seoul.go.kr/file/info/view.do?fIdx=1871",
      "longitude": "126.911414",
      "p_idx": 70,
      "latitude": "37.546797"
    },
    {
      "p_addr": "서울특별시 은평구 불광동 산33-1",
      "p_zone": "은평구",
      "main_equip": "도서관 산책로 실외배드민턴장 등",
      "p_park": "불광근린공원",
      "p_img": "http://parks.seoul.go.kr/file/info/view.do?fIdx=1872",
      "longitude": "126.9298962",
      "p_idx": 71,
      "latitude": "37.6188016"
    },
    {
      "p_addr": "서울특별시 노원구 한글비석로12길 51-33(불암산공원) ",
      "p_zone": "노원구",
      "main_equip": "등산로 및 휴게시설",
      "p_park": "불암산도시자연공원",
      "p_img": "http://parks.seoul.go.kr/file/info/view.do?fIdx=1873",
      "longitude": "127.0952714",
      "p_idx": 72,
      "latitude": "37.6636719"
    },
    {
      "p_addr": "서울특별시 중랑구 면목동 산1-4 ",
      "p_zone": "중랑구",
      "main_equip": "광장 4개소 노인정 수영장 용마폭포공원 ",
      "p_park": "용마폭포공원",
      "p_img": "http://parks.seoul.go.kr/file/info/view.do?fIdx=1874",
      "longitude": "127.0905888",
      "p_idx": 73,
      "latitude": "37.5731968"
    },
    {
      "p_addr": "서울특별시 동작구 노량진로 191",
      "p_zone": "동작구",
      "main_equip": "사육신묘 의절사 불이문 홍살문 비각 산책로",
      "p_park": "사육신공원",
      "p_img": "http://parks.seoul.go.kr/file/info/view.do?fIdx=1875",
      "longitude": "126.948636",
      "p_idx": 74,
      "latitude": "37.5137049"
    },
    {
      "p_addr": "서울특별시 양천구 목동 199-51",
      "p_zone": "양천구",
      "main_equip": "용왕정 1동(정도600년 기념 건립) 잔디광장 6000㎡ 조깅코스 400m 건강지압로90m 배드민턴장3개소 게이트볼장1개소 어린이 놀이터1개소 약수터2개소 각종 운동시설(체력단련장) 화장실 3개동 공원등 63개 기타시설 등 ",
      "p_park": "용왕산근린공원",
      "p_img": "http://parks.seoul.go.kr/file/info/view.do?fIdx=1876",
      "longitude": "126.8783125",
      "p_idx": 75,
      "latitude": "37.5429593"
    },
    {
      "p_addr": "서울특별시 종로구 사직로9길 5",
      "p_zone": "종로구",
      "main_equip": "사직단 단군성전 황학정 어린이도서관 종로시립도서관 수영장",
      "p_park": "사직근린공원",
      "p_img": "http://parks.seoul.go.kr/file/info/view.do?fIdx=1877",
      "longitude": "126.9674018",
      "p_idx": 76,
      "latitude": "37.5759864"
    },
    {
      "p_addr": "서울특별시 강서구 내발산동 산4-5",
      "p_zone": "강서구",
      "main_equip": "강서구민회관 서울정보기능대학 운동장(인조잔디구장조깅트랙) 테니스장 트림코스장 조각의 거리 야외무대 국궁장 등",
      "p_park": "우장산근린공원",
      "p_img": "http://parks.seoul.go.kr/file/info/view.do?fIdx=1878",
      "longitude": "126.844932",
      "p_idx": 77,
      "latitude": "37.5541932"
    },
    {
      "p_addr": "서울특별시 동작구 사당동 산24-17",
      "p_zone": "동작구",
      "main_equip": "삼일공원비 삼일공원 산책길 삼일공원 놀이터",
      "p_park": "삼일근린공원",
      "p_img": "http://parks.seoul.go.kr/file/info/view.do?fIdx=1879",
      "longitude": "126.9743686",
      "p_idx": 78,
      "latitude": "37.4860183"
    },
    {
      "p_addr": "서울특별시 종로구 북촌로 134-1 (우) 03050",
      "p_zone": "종로구",
      "main_equip": "삼청동문(암각) 배드민턴장 테니스장 어린이 놀이터 다목적 공터 및 매점 등 ",
      "p_park": "삼청근린공원",
      "p_img": "http://parks.seoul.go.kr/file/info/view.do?fIdx=1880",
      "longitude": "126.9842875",
      "p_idx": 79,
      "latitude": "37.5895821"
    },
    {
      "p_addr": "서울특별시 종로구 옥인동 산 3-1 ",
      "p_zone": "종로구",
      "main_equip": "인왕사 선바위 국사당 인왕천 만수천 석굴암약수터",
      "p_park": "인왕산도시자연공원",
      "p_img": "http://parks.seoul.go.kr/file/info/view.do?fIdx=1881",
      "longitude": "126.9578438",
      "p_idx": 80,
      "latitude": "37.5849001"
    },
    {
      "p_addr": "서울특별시 동작구 성대로6사길 27-6(상도공원) ",
      "p_zone": "동작구",
      "main_equip": "배드민턴장 생활체육시설 약수터 산책로",
      "p_park": "상도근린공원",
      "p_img": "http://parks.seoul.go.kr/file/info/view.do?fIdx=1882",
      "longitude": "126.9385469",
      "p_idx": 81,
      "latitude": "37.492299"
    },
    {
      "p_addr": "서울특별시 강동구 동남로 660(일자산공원)",
      "p_zone": "강동구",
      "main_equip": "실내배드민턴장 실내체육관 산책로 X-게임장 잔디광장 인공폭포",
      "p_park": "일자산도시자연공원",
      "p_img": "http://parks.seoul.go.kr/file/info/view.do?fIdx=1883",
      "longitude": "127.1574587",
      "p_idx": 82,
      "latitude": "37.5431657"
    },
    {
      "p_addr": "서울특별시 도봉구 쌍문동 산80",
      "p_zone": "도봉구",
      "main_equip": "산책등산로 정자 약수터 화장실 테니스장 배구장 배드민턴장 문화센터 등",
      "p_park": "쌍문근린공원",
      "p_img": "http://parks.seoul.go.kr/file/info/view.do?fIdx=1853",
      "longitude": "127.0271316",
      "p_idx": 83,
      "latitude": "37.6531456"
    },
    {
      "p_addr": "서울특별시 노원구 상계동 산3-1",
      "p_zone": "노원구",
      "main_equip": "등산로 및 휴게시설",
      "p_park": "수락산도시자연공원",
      "p_img": "http://parks.seoul.go.kr/file/info/view.do?fIdx=1855",
      "longitude": "127.0813633",
      "p_idx": 84,
      "latitude": "37.699232"
    },
    {
      "p_addr": "서울특별시 송파구 잠실로 148 (잠실동) ",
      "p_zone": "송파구",
      "main_equip": "휴게소 서울놀이마당 매직아일랜드 석촌호수",
      "p_park": "송파나루근린공원(석촌호수)",
      "p_img": "http://parks.seoul.go.kr/file/info/view.do?fIdx=1856",
      "longitude": "127.0983002",
      "p_idx": 85,
      "latitude": "37.5069328"
    },
    {
      "p_addr": "서울특별시 영등포구 선유로 343 (당산동 1) 선유도공원관리사무소",
      "p_zone": "영등포구",
      "main_equip": "녹색기둥의 정원 시간의 정원 수질정화원 수생식물원 선유정 네개의 원형공간 카페테리아나루 선유교 전망데크",
      "p_park": "선유도근린공원",
      "p_img": "http://parks.seoul.go.kr/file/info/view.do?fIdx=1857",
      "longitude": "126.90014",
      "p_idx": 86,
      "latitude": "37.543418"
    },
    {
      "p_addr": "서울특별시 중구 손기정로 101 ",
      "p_zone": "중구",
      "main_equip": "청소년독서실 마을문고 테니스장 게이트볼장 어린이놀이터",
      "p_park": "손기정체육공원",
      "p_img": "http://parks.seoul.go.kr/file/info/view.do?fIdx=1858",
      "longitude": "126.9652702",
      "p_idx": 87,
      "latitude": "37.5560189"
    },
    {
      "p_addr": "서울특별시 성북구 돈암동 616-1055",
      "p_zone": "성북구",
      "main_equip": "생태연못 전망대 휴게광장 나무집 야외학습장 바닥분수 등",
      "p_park": "성북근린공원",
      "p_img": "http://parks.seoul.go.kr/file/info/view.do?fIdx=1859",
      "longitude": "127.0078625",
      "p_idx": 88,
      "latitude": "37.5948509"
    },
    {
      "p_addr": "서울특별시 강서구 화곡동 산41-6",
      "p_zone": "강서구",
      "main_equip": "법성사 용문사 약수터 배드민턴장",
      "p_park": "봉제산공원",
      "p_img": "http://parks.seoul.go.kr/file/info/view.do?fIdx=1470",
      "longitude": "126.8517836",
      "p_idx": 89,
      "latitude": "37.5421979"
    },
    {
      "p_addr": "서울특별시 도봉구 마들로 916(서울창포원) ",
      "p_zone": "도봉구",
      "main_equip": "붓꽃원 약용식물원 수변식물원초화원. 방문자센터 등",
      "p_park": "서울창포원",
      "p_img": "http://parks.seoul.go.kr/file/info/view.do?fIdx=1471",
      "longitude": "127.047938",
      "p_idx": 90,
      "latitude": "37.689585"
    },
    {
      "p_addr": "서울특별시 강북구 월계로 173",
      "p_zone": "강북구",
      "main_equip": "조경시설 : 청운답원 월영지 월광폭포 단풍숲 초화원 사슴동산 칠폭지 볼플라자 산책로 쉼터 데크 계류 옥상녹화 등 건축시설 : 방문자센터(서울디자인갤러리) 전망대 공연장(2) 미술관 창녕위궁재서 주차장(402대) 레스토랑(2) 카페(2) 기타시설 : 태양광발전시설 경사형엘리베이터(2) Open스튜디오 ",
      "p_park": "북서울꿈의숲",
      "p_img": "http://parks.seoul.go.kr/file/info/view.do?fIdx=1472",
      "longitude": "127.0407344",
      "p_idx": 91,
      "latitude": "37.6233355"
    },
    {
      "p_addr": "서울특별시 양천구 남부순환로64길 20 (신월동)",
      "p_zone": "양천구",
      "main_equip": "소리분수(노즐41개) 미디어벽천 실개천 건천(계류시설) 백인의 식탁 음수전 등 체육시설 : 축구장 (3010㎡)ㆍ농구장 1면(240㎡)ㆍ배드민턴장 4면(1050㎡) 철봉 등 12 종(53개) ",
      "p_park": "서서울호수공원",
      "p_img": "http://parks.seoul.go.kr/file/info/view.do?fIdx=1473",
      "longitude": "126.8304789",
      "p_idx": 92,
      "latitude": "37.5278392"
    },
    {
      "p_addr": "서울특별시 중랑구 송림길 160(중랑캠핑숲)/중랑구 망우동 74(청소년체험의숲)",
      "p_zone": "중랑구",
      "main_equip": "조경시설  수경시설 : 2900㎡(분수연못 1120 테라스연못 440 계류 720 건천 620) 잔디광장 : 5000㎡(청소년문화존/Wi-Fi) 산 책 로 : 1767㎡(산책로 797 등산로 970) 조경수목 : 82473주(교목 2411 관목 80062) 기타녹지 : 90480㎡(지피식물 6000 잔디 14480 녹지 70000 초화 164000본)       휴양시설  캠 핑 장 : 47면(37200㎡/관리사무소 1동 화장실 1동 식기세척장 1동 운동시설 등)       교양시설  청소년독서실 : 936㎡(2층) 청소년커뮤니티센터 : 390㎡(3층) 생태학습존 청소년문화존 일부 : 24400㎡   관리시설 관리사무소 : 576㎡(공원 196 캠핑장 380/ 스파 화장실 매점 등) 주 차 장 : 68면(청소년문화존 58 가족캠프존 10) 공 원 등 : 136주 (공원등 90 보안등 46) ",
      "p_park": "중랑캠핑숲",
      "p_img": "http://parks.seoul.go.kr/file/info/view.do?fIdx=1474",
      "longitude": "127.1093075",
      "p_idx": 93,
      "latitude": "37.6049896"
    },
    {
      "p_addr": "서울특별시 강북구 우이동 80번지 일대",
      "p_zone": "강북구",
      "main_equip": "조경시설 : 실개울 벽천 분수 생태연못 그늘시렁 등 편의시설 : 화장실 음수대 등 관리시설 : 관리사무소 공원등 안내표지판 등 기반시설 : 놀이마당 배드민턴장 어린이놀이터 산책로 데크광장 ",
      "p_park": "솔밭근린공원",
      "p_img": "http://parks.seoul.go.kr/file/info/view.do?fIdx=1526",
      "longitude": "127.0116241",
      "p_idx": 94,
      "latitude": "37.652331"
    },
    {
      "p_addr": "서울특별시 금천구 독산동 산118-4(금천체육공원)",
      "p_zone": "금천구",
      "main_equip": "야외무대 농구장 배드민턴장 그날막 조합놀이대 연못 장승 목재데크 황토길 지압로 분수",
      "p_park": "금천체육공원(관악산)",
      "p_img": "http://parks.seoul.go.kr/file/info/view.do?fIdx=1527",
      "longitude": "126.908681",
      "p_idx": 95,
      "latitude": "37.468164"
    },
    {
      "p_addr": "서울특별시 금천구 시흥대로38길 61(시흥동 937-2)",
      "p_zone": "금천구",
      "main_equip": "문화회관 2020㎡ 인공폭포(L30 x H12m) 공원시설 전망대 등",
      "p_park": "금천폭포근린공원",
      "p_img": "http://parks.seoul.go.kr/file/info/view.do?fIdx=1528",
      "longitude": "126.9040127",
      "p_idx": 96,
      "latitude": "37.4468663"
    },
    {
      "p_addr": "서울특별시 금천구 독산동 산8 일대",
      "p_zone": "금천구",
      "main_equip": "체육시설 : 생활체육시설 독산테니스장(8면) 배드민턴장(2개소) 다목적 광장 편익시설 : 정자(3동) 화장실(2개소) 만수천 약수터",
      "p_park": "만수천공원(관악산)",
      "p_img": "http://parks.seoul.go.kr/file/info/view.do?fIdx=1529",
      "longitude": "126.9090028",
      "p_idx": 97,
      "latitude": "37.4734274"
    },
    {
      "p_addr": "서울특별시 도봉구 시루봉로6길 33",
      "p_zone": "도봉구",
      "main_equip": "기반시설 : 산책로 조경시설 : 관상용식수대 그늘시렁 연못 휴양시설 : 정자 운동시설 : 체력단련시설 편익시설 : 화장실 지압보도 관리시설 : 도봉환경교실",
      "p_park": "발바닥공원",
      "p_img": "http://parks.seoul.go.kr/file/info/view.do?fIdx=1530",
      "longitude": "127.031982",
      "p_idx": 98,
      "latitude": "37.6597135"
    },
    {
      "p_addr": "서울특별시 도봉구 창동 28번지",
      "p_zone": "도봉구",
      "main_equip": "기반시설 : 산책로 조경시설 : 관상용식수대 그늘시렁 연못 휴양시설 : 정자 장의자 운동시설 : 배드민턴장 체력단련시설 유희시설 : 그네 미끄럼틀 시솔 조합놀이대 등 편익시설 : 화장실 음수대 관리시설 : 공원등 안내판",
      "p_park": "월천근린공원",
      "p_img": "http://parks.seoul.go.kr/file/info/view.do?fIdx=1531",
      "longitude": "127.0509895",
      "p_idx": 99,
      "latitude": "37.6473889"
    },
    {
      "p_addr": "서울특별시 동대문구 용두동 34-1번지 일대",
      "p_zone": "동대문구",
      "main_equip": "조경시설 : 연못 계류 분수 그늘시렁 편의시설 : 음수대 휴게소 야외전시장 야외전시벽 놀이터 관리시설 : 공원안내판 관리동 기반시설 : 도로 진입광장 휴게광장 ",
      "p_park": "용두근린공원",
      "p_img": "http://parks.seoul.go.kr/file/info/view.do?fIdx=1532",
      "longitude": "127.0390042",
      "p_idx": 100,
      "latitude": "37.5732791"
    },
    {
      "p_addr": "서울특별시 마포구 상암동 1761",
      "p_zone": "마포구",
      "main_equip": "조경시설 : 생태연못 생태습지 암석원 그늘시렁 정자 등 편의시설 : 화장실 연식의자 등 관리시설 : 종합안내판 공원등 관리사무소 모유수유실 유모차대여소 등 기반시설 : 운동기구(어깨손목돌리기 등 7종 10조) ",
      "p_park": "상암근린공원",
      "p_img": "http://parks.seoul.go.kr/file/info/view.do?fIdx=1533",
      "longitude": "126.8859012",
      "p_idx": 101,
      "latitude": "37.5760106"
    },
    {
      "p_addr": "서울특별시 마포구 창전동 3-193번지 일대(홍익대 뒷산)",
      "p_zone": "마포구",
      "main_equip": "배드민턴장 약수터 농구장 조깅트랙 체력단련장 지압보도 광장",
      "p_park": "와우근린공원",
      "p_img": "http://parks.seoul.go.kr/file/info/view.do?fIdx=1534",
      "longitude": "126.9289936",
      "p_idx": 102,
      "latitude": "37.5517298"
    },
    {
      "p_addr": "서울특별시 성동구 장터1길 18",
      "p_zone": "성동구",
      "main_equip": "체육관 경로당 청소년 문화회관 어린이집 그늘시렁 음수대 평의자 등의자 운동시설물 공원등 종합안내간판 등 ",
      "p_park": "금호근린공원",
      "p_img": "http://parks.seoul.go.kr/file/info/view.do?fIdx=1535",
      "longitude": "127.0189457",
      "p_idx": 103,
      "latitude": "37.5494726"
    },
    {
      "p_addr": "서울특별시 성동구 옥수동 산1-1",
      "p_zone": "성동구",
      "main_equip": "경로당 어린이놀이터 배드민턴장 화장실 음수대 공원등",
      "p_park": "달맞이근린공원",
      "p_img": "http://parks.seoul.go.kr/file/info/view.do?fIdx=1536",
      "longitude": "127.0212054",
      "p_idx": 104,
      "latitude": "37.543564"
    },
    {
      "p_addr": "서울특별시 송파구 문정동 18-4",
      "p_zone": "송파구",
      "main_equip": "조경시설 : 바닥분수 초가정자 사각정자 휴게벤치 등 기반시설 : 경화토포장로 마사토산책로 등 ",
      "p_park": "문정근린공원",
      "p_img": "http://parks.seoul.go.kr/file/info/view.do?fIdx=1537",
      "longitude": "127.1275819",
      "p_idx": 105,
      "latitude": "37.4862156"
    },
    {
      "p_addr": "서울특별시 서초구 바우뫼로12길 40 (양재동)",
      "p_zone": "서초구",
      "main_equip": "놀이마당 중앙광장 잔디광장 야외무대 원두막 1동 조각작품 12개소 모래놀이터 등 ",
      "p_park": "문화예술공원",
      "p_img": "http://parks.seoul.go.kr/file/info/view.do?fIdx=1539",
      "longitude": "127.030517",
      "p_idx": 106,
      "latitude": "37.467654"
    },
    {
      "p_addr": "서울특별시 종로구 세종대로 189 (우) 03172",
      "p_zone": "종로구",
      "main_equip": "휴게?편익공간 : 야외무대 382㎡ 매점 18㎡ 디자인파라솔 2개소 야외테이블 14개 등 상징광장 : 조선시대 사헌부 및 병조터 흔적복원 490㎡ 한글글자마당 : 168㎡(전국민 공모 11172자로 구성) ",
      "p_park": "세종로공원",
      "p_img": "http://parks.seoul.go.kr/file/info/view.do?fIdx=1698",
      "longitude": "126.9758875",
      "p_idx": 107,
      "latitude": "37.5735"
    },
    {
      "p_addr": "서울특별시 관악구 대학동 산63-1일대 샘말공원",
      "p_zone": "관악구",
      "main_equip": "조경시설 : 바닥분수 음수전 육각정자 파고라 유희시설 : 조합놀이대 1조 놀이시설 2종 3점 운동시설 : 허리돌리기 팔올리기운동 옆회전운동 등 11점 지압보도 편의시설 : 화장실 관리시설 : 관리사무실 공원등 27본 ",
      "p_park": "샘말공원(관악산)",
      "p_img": "http://parks.seoul.go.kr/file/info/view.do?fIdx=1699",
      "longitude": "126.938511",
      "p_idx": 108,
      "latitude": "37.4642128"
    },
    {
      "p_addr": "서울특별시 도봉구 창동 산24",
      "p_zone": "도봉구",
      "main_equip": "조경시설 : 잔디광장 계류 생태연못 녹지대 편의시설 : 음수대 유희시설 : 조합놀이대 시소 그네 운동시설 : 생활체육시설 관리시설 : CCTV 공원등 공원안내판 유희시설 : 산책로 중앙진입로 ",
      "p_park": "초안산생태공원",
      "p_img": "http://parks.seoul.go.kr/file/info/view.do?fIdx=1708",
      "longitude": "127.0405382",
      "p_idx": 109,
      "latitude": "37.6479483"
    },
    {
      "p_addr": "서울특별시 구로구 연동로 240(항동81-1) 푸른수목원관리사무소",
      "p_zone": "구로구",
      "main_equip": null,
      "p_park": "푸른수목원",
      "p_img": "http://parks.seoul.go.kr/file/info/view.do?fIdx=1718",
      "longitude": "126.82407",
      "p_idx": 110,
      "latitude": "37.483029"
    },
    {
      "p_addr": "서울특별시 은평구 구파발동 갈현동 진관내동",
      "p_zone": "은평구",
      "main_equip": "산책로(둘레길) 탑골생태공원 유아숲체험장 운동시설 등",
      "p_park": "서오능도시자연공원",
      "p_img": "http://parks.seoul.go.kr/file/info/view.do?fIdx=1726",
      "longitude": "126.9134338",
      "p_idx": 111,
      "latitude": "37.6374823"
    },
    {
      "p_addr": "서울특별시 서초구 원지동 산 33",
      "p_zone": "서초구",
      "main_equip": "정자 4동 파고라 약수터 화장실 등",
      "p_park": "청계산도시자연공원",
      "p_img": "http://parks.seoul.go.kr/file/info/view.do?fIdx=1736",
      "longitude": "127.0424726",
      "p_idx": 112,
      "latitude": "37.4224347"
    },
    {
      "p_addr": "서울특별시 강서구 개화동 산17",
      "p_zone": "강서구",
      "main_equip": "약사사 약사사 3층석탑 미타사 약수터 6?25전사자위령탑 운동시설 등",
      "p_park": "개화근린공원",
      "p_img": "http://parks.seoul.go.kr/file/info/view.do?fIdx=1730",
      "longitude": "126.8068278",
      "p_idx": 113,
      "latitude": "37.5813917"
    },
    {
      "p_addr": "서울특별시 광진구 광장동 370",
      "p_zone": "광진구",
      "main_equip": "남의광장 생태자료실 자생식물원 나비공원 습지원 황톳길 지압보도 및 약수터",
      "p_park": "아차산생태공원",
      "p_img": "http://parks.seoul.go.kr/file/info/view.do?fIdx=1731",
      "longitude": "127.1010031",
      "p_idx": 114,
      "latitude": "37.5517142"
    },
    {
      "p_addr": "서울특별시 서초구 내곡동 산12-404",
      "p_zone": "서초구",
      "main_equip": null,
      "p_park": "인능산도시자연공원",
      "p_img": "http://parks.seoul.go.kr/file/info/view.do?fIdx=1732",
      "longitude": "127.0666632",
      "p_idx": 115,
      "latitude": "37.4482109"
    },
    {
      "p_addr": "서울특별시 서초구 염곡동 산25-1",
      "p_zone": "서초구",
      "main_equip": null,
      "p_park": "구룡산",
      "p_img": "http://parks.seoul.go.kr/file/info/view.do?fIdx=1733",
      "longitude": "127.061567",
      "p_idx": 116,
      "latitude": "37.4689473"
    },
    {
      "p_addr": "서울특별시 서초구 우면동 산35-1",
      "p_zone": "서초구",
      "main_equip": "약수터 정자 화장실 등",
      "p_park": "우면산도시자연공원",
      "p_img": "http://parks.seoul.go.kr/file/info/view.do?fIdx=1673",
      "longitude": "127.0091324",
      "p_idx": 117,
      "latitude": "37.470484"
    },
    {
      "p_addr": "서울특별시 은평구 진관동 산55",
      "p_zone": "은평구",
      "main_equip": "산책로 구민체육센터 다목적체육관 축구장 등",
      "p_park": "향림근린공원",
      "p_img": "http://parks.seoul.go.kr/file/info/view.do?fIdx=1734",
      "longitude": "126.9240693",
      "p_idx": 118,
      "latitude": "37.6293824"
    },
    {
      "p_addr": "서울특별시 은평구 신사동 산80-4",
      "p_zone": "은평구",
      "main_equip": "산책로 자연학습장 놀이터 등",
      "p_park": "신사근린공원",
      "p_img": "http://parks.seoul.go.kr/file/info/view.do?fIdx=1735",
      "longitude": "126.9102948",
      "p_idx": 119,
      "latitude": "37.5920771"
    },
    {
      "p_addr": "서울특별시 중구 통일로 1 서울역",
      "p_zone": "중구",
      "main_equip": null,
      "p_park": "문화역 서울284",
      "p_img": "http://parks.seoul.go.kr/file/info/view.do?fIdx=1722",
      "longitude": "126.9715923",
      "p_idx": 120,
      "latitude": "37.5558722"
    },
    {
      "p_addr": "서울특별시 강남구 수서동 산10-1",
      "p_zone": "강남구",
      "main_equip": "사당 재실 종회당 ",
      "p_park": "광평근린공원",
      "p_img": "http://parks.seoul.go.kr/file/info/view.do?fIdx=1946",
      "longitude": "127.092184",
      "p_idx": 121,
      "latitude": "37.4880445"
    },
    {
      "p_addr": "서울특별시 강남구 청담동 66",
      "p_zone": "강남구",
      "main_equip": "청소년회관 시비광장 실개천 배드민턴장 농구장 약수터 운동광장 등 ",
      "p_park": "청담근린공원",
      "p_img": "http://parks.seoul.go.kr/file/info/view.do?fIdx=1948",
      "longitude": "127.052453",
      "p_idx": 122,
      "latitude": "37.5213259"
    },
    {
      "p_addr": "서울특별시 강동구 둔촌동 산94",
      "p_zone": "강동구",
      "main_equip": "유리온실 관천대 전망데크 휴게데크 그늘막 별자리조명 등 ",
      "p_park": "허브천문공원",
      "p_img": "http://parks.seoul.go.kr/file/info/view.do?fIdx=1917",
      "longitude": "127.1533951",
      "p_idx": 123,
      "latitude": "37.5372715"
    },
    {
      "p_addr": "서울특별시 은평구 통일로 849",
      "p_zone": "은평구",
      "main_equip": "일출분수 파발벽천 수로 등  ",
      "p_park": "연신내물빛공원",
      "p_img": "http://parks.seoul.go.kr/file/info/view.do?fIdx=1737",
      "longitude": "126.9207354",
      "p_idx": 124,
      "latitude": "37.619052"
    },
    {
      "p_addr": "서울특별시 중구 망우동 산 30-7 일대",
      "p_zone": "중랑구",
      "main_equip": "잔디마당 맨발광장 뜀동산 피크닉장 야생초화원 농촌체험장 ",
      "p_park": "나들이근린공원",
      "p_img": "http://parks.seoul.go.kr/file/info/view.do?fIdx=1739",
      "longitude": "127.113261",
      "p_idx": 125,
      "latitude": "37.6054218"
    },
    {
      "p_addr": "서울특별시 종로구 숭인동 58",
      "p_zone": "종로구",
      "main_equip": null,
      "p_park": "숭인근린공원",
      "p_img": "http://parks.seoul.go.kr/file/info/view.do?fIdx=1740",
      "longitude": "127.0178267",
      "p_idx": 126,
      "latitude": "37.5764419"
    },
    {
      "p_addr": "서울특별시 중랑구 면목동 산19",
      "p_zone": "중랑구",
      "main_equip": "순국선열 추념탑 348㎡ 높이 22.3m ",
      "p_park": "서일대뒷산공원",
      "p_img": "http://parks.seoul.go.kr/file/info/view.do?fIdx=1741",
      "longitude": "127.0987817",
      "p_idx": 127,
      "latitude": "37.5877155"
    },
    {
      "p_addr": "서울특별시 중랑구 면목7동 산50 ",
      "p_zone": "중랑구",
      "main_equip": "피크닉장 놀이터 체력단련장 체육관  ",
      "p_park": "용마도시자연공원(사가정공원)",
      "p_img": "http://parks.seoul.go.kr/file/info/view.do?fIdx=1947",
      "longitude": "127.095997",
      "p_idx": 128,
      "latitude": "37.5797622"
    },
    {
      "p_addr": "서울특별시 마포구 증산로 87",
      "p_zone": "마포구",
      "main_equip": "6개의탱크와 문화마당 녹지",
      "p_park": "문화비축기지",
      "p_img": "http://parks.seoul.go.kr/file/info/view.do?fIdx=1945",
      "longitude": "126.8932455",
      "p_idx": 129,
      "latitude": "37.57171848"
    },
    {
      "p_addr": "서울특별시 노원구 공릉2동 산 82-2",
      "p_zone": "노원구",
      "main_equip": "조경시설 : 텃밭 잔디광장 철길 산책로 등 건축시설 : 무궁화호 객차(방문자센터) 기타시설 : 경춘철교 ",
      "p_park": "경춘선숲길",
      "p_img": "http://parks.seoul.go.kr/file/info/view.do?fIdx=1906",
      "longitude": "127.076482",
      "p_idx": 130,
      "latitude": "37.627077"
    },
    {
      "p_addr": "서울특별시 강남구 율현동 밤고개로24길(율현동 56)",
      "p_zone": "강남구",
      "main_equip": "관리시설 : 사무실 조경시설 : 정자(4개) 조형쉼터(10개) 조형파고라(3개) 수경시설 운동시설 : 게이트볼장 다목적구장 체력단련시설 편익시설 : 화장실(2개) 음수대(3개) 근로자대기실 유희시설 : 어린이놀이터(2개) ",
      "p_park": "율현공원",
      "p_img": "http://parks.seoul.go.kr/file/info/view.do?fIdx=1738",
      "longitude": "127.115594",
      "p_idx": 131,
      "latitude": "37.472332"
    },
    {
      "p_addr": "서울로7017",
      "p_zone": "중구",
      "main_equip": null,
      "p_park": "서울로7017",
      "p_img": "http://parks.seoul.go.kr/file/info/view.do?fIdx=1477",
      "longitude": null,
      "p_idx": 132,
      "latitude": null
    }
  ]
}